{
"type": "FeatureCollection",
"name": "2024.3_mark-points",
"crs": { "type": "name", "properties": { "name": "urn:ogc:def:crs:EPSG::32613" } },
"features": [
{ "type": "Feature", "properties": { "name": "Beaver Creek", "installed": 2024.0, "installer": "W Petry", "type": "magnail in bedrock", "position_quality": "FIX", "lat_dd": 38.36286275, "lon_dd": -106.9309833, "latest_recovery": null, "recovered_by": null, "found_mark": null, "stability": "high", "condition": null }, "geometry": { "type": "Point", "coordinates": [ 331296.185869366745465, 4247841.390886798501015 ] } },
{ "type": "Feature", "properties": { "name": "Bellview Base", "installed": 2022.0, "installer": "W Petry", "type": "magnail in bedrock", "position_quality": "FIX", "lat_dd": 39.00199562, "lon_dd": -107.02325729, "latest_recovery": "2023-06-22", "recovered_by": "W Petry", "found_mark": true, "stability": "high", "condition": "good" }, "geometry": { "type": "Point", "coordinates": [ 324799.873549356474541, 4318945.298769338987768 ] } },
{ "type": "Feature", "properties": { "name": "Bellview II", "installed": 2023.0, "installer": "W Petry", "type": "magnail in bedrock", "position_quality": null, "lat_dd": 39.01564608, "lon_dd": -107.0401545, "latest_recovery": "2023-08-31", "recovered_by": "W Petry", "found_mark": true, "stability": "high", "condition": "good" }, "geometry": { "type": "Point", "coordinates": [ 323370.532363289850764, 4320492.978749552741647 ] } },
{ "type": "Feature", "properties": { "name": "Brush Creek", "installed": 2022.0, "installer": "W Petry", "type": "magnail in bedrock", "position_quality": "FIX", "lat_dd": 38.894122, "lon_dd": -106.88641941, "latest_recovery": null, "recovered_by": null, "found_mark": null, "stability": "high", "condition": null }, "geometry": { "type": "Point", "coordinates": [ 336402.148572258651257, 4306718.629285450093448 ] } },
{ "type": "Feature", "properties": { "name": "Brush Creek Hill", "installed": 2022.0, "installer": "W Petry", "type": "magnail in bedrock", "position_quality": "FIX", "lat_dd": 38.8966544, "lon_dd": -106.89115335, "latest_recovery": "2023-07-27", "recovered_by": "W Petry", "found_mark": true, "stability": "high", "condition": "good" }, "geometry": { "type": "Point", "coordinates": [ 335997.397412099759094, 4307008.181560741737485 ] } },
{ "type": "Feature", "properties": { "name": "Burro Park", "installed": 2022.0, "installer": "W Petry", "type": "magnail in bedrock", "position_quality": "FIX", "lat_dd": 38.12266837, "lon_dd": -106.79015087000001, "latest_recovery": "2023-07-29", "recovered_by": "W Petry", "found_mark": true, "stability": "high", "condition": "good" }, "geometry": { "type": "Point", "coordinates": [ 343085.569548452331219, 4220939.06569641456008 ] } },
{ "type": "Feature", "properties": { "name": "Cement Creek", "installed": 2023.0, "installer": "W Petry", "type": "magnail in bedrock", "position_quality": "FIX", "lat_dd": 38.92528429, "lon_dd": -106.7779469, "latest_recovery": "2023-08-10", "recovered_by": "W Petry", "found_mark": true, "stability": "high", "condition": "good" }, "geometry": { "type": "Point", "coordinates": [ 345877.412242470076308, 4309988.086016142740846 ] } },
{ "type": "Feature", "properties": { "name": "Central East River Valley", "installed": 2022.0, "installer": "W Petry", "type": "magnail in bedrock", "position_quality": "FIX", "lat_dd": 38.96848233, "lon_dd": -106.99326645, "latest_recovery": "2023-06-22", "recovered_by": "W Petry", "found_mark": true, "stability": "high", "condition": "good" }, "geometry": { "type": "Point", "coordinates": [ 327315.655823648208752, 4315168.51227393001318 ] } },
{ "type": "Feature", "properties": { "name": "Cottonwood Pass", "installed": 2024.0, "installer": "W Petry", "type": "magnail in bedrock", "position_quality": "FIX", "lat_dd": 38.8452721, "lon_dd": -106.42738014, "latest_recovery": null, "recovered_by": null, "found_mark": null, "stability": "high", "condition": null }, "geometry": { "type": "Point", "coordinates": [ 376129.146165420068428, 4300574.379492175765336 ] } },
{ "type": "Feature", "properties": { "name": "Cumberland Pass", "installed": 2024.0, "installer": "W Petry", "type": "magnail in bedrock", "position_quality": "FIX", "lat_dd": 38.6942247, "lon_dd": -106.47582526, "latest_recovery": "2024-07-04", "recovered_by": "W Petry", "found_mark": true, "stability": "high", "condition": "good" }, "geometry": { "type": "Point", "coordinates": [ 371654.356918097415473, 4283878.761927034705877 ] } },
{ "type": "Feature", "properties": { "name": "Cumberland Ridge", "installed": 2024.0, "installer": "W Petry", "type": "magnail in bedrock", "position_quality": "FIX", "lat_dd": 38.69187596, "lon_dd": -106.47365073, "latest_recovery": null, "recovered_by": null, "found_mark": null, "stability": "high", "condition": null }, "geometry": { "type": "Point", "coordinates": [ 371839.283023216179572, 4283615.070633051916957 ] } },
{ "type": "Feature", "properties": { "name": "Dorf Hill", "installed": 2022.0, "installer": "W Petry", "type": "magnail in bedrock", "position_quality": "FIX", "lat_dd": 38.97334422, "lon_dd": -106.99941435, "latest_recovery": null, "recovered_by": null, "found_mark": null, "stability": "high", "condition": null }, "geometry": { "type": "Point", "coordinates": [ 326794.841478278161958, 4315719.784715732559562 ] } },
{ "type": "Feature", "properties": { "name": "East Maroon Pass", "installed": 2022.0, "installer": "W Petry", "type": "magnail in bedrock", "position_quality": "SINGLE", "lat_dd": 39.01182017, "lon_dd": -106.94285742, "latest_recovery": "2023-08-23", "recovered_by": "W Petry", "found_mark": true, "stability": "high", "condition": "poor" }, "geometry": { "type": "Point", "coordinates": [ 331785.800541410688311, 4319883.949205252341926 ] } },
{ "type": "Feature", "properties": { "name": "Elko Perch", "installed": 2023.0, "installer": "W Petry", "type": "magnail in bedrock", "position_quality": "FIX", "lat_dd": 39.00678537, "lon_dd": -107.0561762, "latest_recovery": null, "recovered_by": null, "found_mark": null, "stability": "high", "condition": null }, "geometry": { "type": "Point", "coordinates": [ 321961.080209964886308, 4319540.79317151196301 ] } },
{ "type": "Feature", "properties": { "name": "Emerald Lake", "installed": 2022.0, "installer": "W Petry", "type": "magnail in bedrock", "position_quality": "FIX", "lat_dd": 39.00733428, "lon_dd": -107.03938998, "latest_recovery": "2023-08-31", "recovered_by": "W Petry", "found_mark": true, "stability": "high", "condition": "good" }, "geometry": { "type": "Point", "coordinates": [ 323416.049855926656164, 4319569.000815527513623 ] } },
{ "type": "Feature", "properties": { "name": "GB Saddle Upper", "installed": 2023.0, "installer": "W Petry", "type": "magnail in bedrock", "position_quality": "FIX", "lat_dd": 38.97863072, "lon_dd": -107.0232514, "latest_recovery": null, "recovered_by": null, "found_mark": null, "stability": "high", "condition": null }, "geometry": { "type": "Point", "coordinates": [ 324742.744125952420291, 4316352.123457287438214 ] } },
{ "type": "Feature", "properties": { "name": "Gothic Baldy Saddle", "installed": 2023.0, "installer": "W Petry", "type": "magnail in bedrock", "position_quality": "FIX", "lat_dd": 38.97656091, "lon_dd": -107.0232852, "latest_recovery": "2023-09-09", "recovered_by": "W Petry", "found_mark": true, "stability": "high", "condition": "good" }, "geometry": { "type": "Point", "coordinates": [ 324734.711314095708076, 4316122.470166612416506 ] } },
{ "type": "Feature", "properties": { "name": "Lily Lake TH", "installed": 2022.0, "installer": "W Petry", "type": "magnail in bedrock", "position_quality": "FIX", "lat_dd": 38.8423961, "lon_dd": -107.06231585, "latest_recovery": "2023-08-15", "recovered_by": "W Petry", "found_mark": true, "stability": "high", "condition": "good" }, "geometry": { "type": "Point", "coordinates": [ 321016.63090853265021, 4301308.09427189361304 ] } },
{ "type": "Feature", "properties": { "name": "Maxfield Meadow", "installed": 2022.0, "installer": "W Petry", "type": "magnail in bedrock", "position_quality": "FIX", "lat_dd": 38.94947328, "lon_dd": -106.99281606, "latest_recovery": null, "recovered_by": null, "found_mark": null, "stability": "high", "condition": null }, "geometry": { "type": "Point", "coordinates": [ 327308.521831847261637, 4313057.948521541431546 ] } },
{ "type": "Feature", "properties": { "name": "Mexican Cut Entrance", "installed": 2022.0, "installer": "W Petry", "type": "magnail in bedrock", "position_quality": "SINGLE", "lat_dd": 39.02598001, "lon_dd": -107.06094015, "latest_recovery": null, "recovered_by": null, "found_mark": null, "stability": "high", "condition": null }, "geometry": { "type": "Point", "coordinates": [ 321596.807079888996668, 4321680.470850409939885 ] } },
{ "type": "Feature", "properties": { "name": "Ohio Creek", "installed": 2023.0, "installer": "W Petry", "type": "magnail in bedrock", "position_quality": "FIX", "lat_dd": 38.79610066, "lon_dd": -107.0879004, "latest_recovery": "2024-07-08", "recovered_by": "W Petry", "found_mark": true, "stability": "high", "condition": "good" }, "geometry": { "type": "Point", "coordinates": [ 318678.576937848818488, 4296220.524834987707436 ] } },
{ "type": "Feature", "properties": { "name": "Paonia B", "installed": 2023.0, "installer": "W Petry", "type": "magnail in bedrock", "position_quality": "FIX", "lat_dd": 38.88838475, "lon_dd": -107.3358089, "latest_recovery": "2023-08-03", "recovered_by": "W Petry", "found_mark": true, "stability": "high", "condition": "good" }, "geometry": { "type": "Point", "coordinates": [ 297408.813820369774476, 4306984.00657804030925 ] } },
{ "type": "Feature", "properties": { "name": "Paonia Rockwall", "installed": 2023.0, "installer": "W Petry", "type": "magnail in bedrock", "position_quality": "FIX", "lat_dd": 38.92295473, "lon_dd": -107.3354321, "latest_recovery": null, "recovered_by": null, "found_mark": null, "stability": "high", "condition": null }, "geometry": { "type": "Point", "coordinates": [ 297539.775891627185047, 4310820.054986418224871 ] } },
{ "type": "Feature", "properties": { "name": "Paradise Divide", "installed": 2022.0, "installer": "W Petry", "type": "magnail in bedrock", "position_quality": "FIX", "lat_dd": 38.98789167, "lon_dd": -107.06221833, "latest_recovery": null, "recovered_by": null, "found_mark": null, "stability": "high", "condition": null }, "geometry": { "type": "Point", "coordinates": [ 321390.345326396171004, 4317455.69531321991235 ] } },
{ "type": "Feature", "properties": { "name": "Research Natural Area", "installed": 2024.0, "installer": "W Petry", "type": "magnail in bedrock", "position_quality": "FIX", "lat_dd": 38.99501462, "lon_dd": -107.0156135, "latest_recovery": null, "recovered_by": null, "found_mark": null, "stability": "high", "condition": null }, "geometry": { "type": "Point", "coordinates": [ 325444.670906549086794, 4318155.8195830732584 ] } },
{ "type": "Feature", "properties": { "name": "Richards", "installed": 2022.0, "installer": "W Petry", "type": "magnail in bedrock", "position_quality": "FIX", "lat_dd": 38.95895366, "lon_dd": -106.98703242000001, "latest_recovery": null, "recovered_by": null, "found_mark": null, "stability": "high", "condition": null }, "geometry": { "type": "Point", "coordinates": [ 327832.707676769176032, 4314099.174253834411502 ] } },
{ "type": "Feature", "properties": { "name": "Rocky Brook", "installed": 2022.0, "installer": "W Petry", "type": "magnail in bedrock", "position_quality": "SINGLE", "lat_dd": 38.86870463, "lon_dd": -106.6638392, "latest_recovery": null, "recovered_by": null, "found_mark": null, "stability": "high", "condition": null }, "geometry": { "type": "Point", "coordinates": [ 355655.00087746034842, 4303522.191430985927582 ] } },
{ "type": "Feature", "properties": { "name": "Snodgrass TH", "installed": 2022.0, "installer": "W Petry", "type": "magnail in bedrock", "position_quality": "FIX", "lat_dd": 38.92467894, "lon_dd": -106.96315385, "latest_recovery": null, "recovered_by": null, "found_mark": null, "stability": "high", "condition": null }, "geometry": { "type": "Point", "coordinates": [ 329819.896428193897009, 4310250.370312096551061 ] } },
{ "type": "Feature", "properties": { "name": "Spring Creek", "installed": 2022.0, "installer": "W Petry", "type": "magnail in bedrock", "position_quality": "SINGLE", "lat_dd": 38.77151605, "lon_dd": -106.76450416, "latest_recovery": null, "recovered_by": null, "found_mark": null, "stability": "high", "condition": null }, "geometry": { "type": "Point", "coordinates": [ 346713.02532378025353, 4292900.318105660378933 ] } },
{ "type": "Feature", "properties": { "name": "Strand Hill", "installed": 2022.0, "installer": "W Petry", "type": "magnail in bedrock", "position_quality": "FIX", "lat_dd": 38.87076469, "lon_dd": -106.89798264, "latest_recovery": null, "recovered_by": null, "found_mark": null, "stability": "high", "condition": null }, "geometry": { "type": "Point", "coordinates": [ 335345.337810210767202, 4304147.194676064886153 ] } },
{ "type": "Feature", "properties": { "name": "Virginia Basin Bench", "installed": 2023.0, "installer": "W Petry", "type": "magnail in bedrock", "position_quality": "FIX", "lat_dd": 38.97719266, "lon_dd": -106.9755903, "latest_recovery": null, "recovered_by": null, "found_mark": null, "stability": "high", "condition": null }, "geometry": { "type": "Point", "coordinates": [ 328868.110519292182289, 4316101.852185926400125 ] } },
{ "type": "Feature", "properties": { "name": "Virginia Basin Road", "installed": 2023.0, "installer": "W Petry", "type": "magnail in bedrock", "position_quality": "FIX", "lat_dd": 38.96831941, "lon_dd": -106.9842919, "latest_recovery": "2024-08-14", "recovered_by": "W Petry", "found_mark": true, "stability": "high", "condition": "good" }, "geometry": { "type": "Point", "coordinates": [ 328092.827440114924684, 4315133.45006215851754 ] } },
{ "type": "Feature", "properties": { "name": "MexCut 13GPS", "installed": 2005.0, "installer": "RMBL / J Boynton", "type": "disc on bedrock", "position_quality": "SINGLE", "lat_dd": 39.025991423345879, "lon_dd": -107.06092519407875, "latest_recovery": "2022-09-09", "recovered_by": "W Petry", "found_mark": true, "stability": "high", "condition": "good" }, "geometry": { "type": "Point", "coordinates": [ 321598.130543788545765, 4321681.70824049692601 ] } },
{ "type": "Feature", "properties": { "name": "MexCut 10GPS", "installed": 2005.0, "installer": "RMBL / J Boynton", "type": null, "position_quality": "SINGLE", "lat_dd": 39.029853769612835, "lon_dd": -107.06479778029913, "latest_recovery": null, "recovered_by": null, "found_mark": null, "stability": null, "condition": null }, "geometry": { "type": "Point", "coordinates": [ 321272.605716521153226, 4322117.980998574756086 ] } },
{ "type": "Feature", "properties": { "name": "MexCut 12GPS", "installed": 2005.0, "installer": "RMBL / J Boynton", "type": null, "position_quality": "SINGLE", "lat_dd": 39.031140946784994, "lon_dd": -107.0642903713242, "latest_recovery": null, "recovered_by": null, "found_mark": null, "stability": null, "condition": null }, "geometry": { "type": "Point", "coordinates": [ 321319.773320246313233, 4322259.843431170098484 ] } },
{ "type": "Feature", "properties": { "name": "MexCut 2GPS", "installed": 2005.0, "installer": "RMBL / J Boynton", "type": null, "position_quality": "SINGLE", "lat_dd": 39.023039011158701, "lon_dd": -107.06815626606353, "latest_recovery": null, "recovered_by": null, "found_mark": null, "stability": null, "condition": null }, "geometry": { "type": "Point", "coordinates": [ 320964.67272657842841, 4321368.239523156546056 ] } },
{ "type": "Feature", "properties": { "name": "MexCut 6GPS", "installed": 2005.0, "installer": "RMBL / J Boynton", "type": null, "position_quality": "SINGLE", "lat_dd": 39.022761968387293, "lon_dd": -107.06411798671068, "latest_recovery": null, "recovered_by": null, "found_mark": null, "stability": null, "condition": null }, "geometry": { "type": "Point", "coordinates": [ 321313.590805270359851, 4321329.549952797591686 ] } },
{ "type": "Feature", "properties": { "name": "MexCut 1GPS", "installed": 2005.0, "installer": "RMBL / J Boynton", "type": null, "position_quality": "SINGLE", "lat_dd": 39.027487159421753, "lon_dd": -107.06869633462964, "latest_recovery": null, "recovered_by": null, "found_mark": null, "stability": null, "condition": null }, "geometry": { "type": "Point", "coordinates": [ 320929.144557923544198, 4321862.988042607903481 ] } },
{ "type": "Feature", "properties": { "name": "MexCut 3GPS", "installed": 2005.0, "installer": "RMBL / J Boynton", "type": null, "position_quality": "SINGLE", "lat_dd": 39.029264842995424, "lon_dd": -107.07025749622164, "latest_recovery": null, "recovered_by": null, "found_mark": null, "stability": null, "condition": null }, "geometry": { "type": "Point", "coordinates": [ 320798.485845557821449, 4322063.362590059638023 ] } },
{ "type": "Feature", "properties": { "name": "MexCut 7GPS_RTK2", "installed": 2005.0, "installer": "RMBL / J Boynton", "type": null, "position_quality": "SINGLE", "lat_dd": 39.027325985624081, "lon_dd": -107.06302332085853, "latest_recovery": null, "recovered_by": null, "found_mark": null, "stability": null, "condition": null }, "geometry": { "type": "Point", "coordinates": [ 321419.851655366481282, 4321833.944683741778135 ] } },
{ "type": "Feature", "properties": { "name": "Gothic 18", "installed": 2005.0, "installer": "RMBL / J Boynton", "type": null, "position_quality": "SINGLE", "lat_dd": 38.967136229141474, "lon_dd": -107.00029494133099, "latest_recovery": null, "recovered_by": null, "found_mark": null, "stability": null, "condition": null }, "geometry": { "type": "Point", "coordinates": [ 326703.417014695936814, 4315032.467677242122591 ] } },
{ "type": "Feature", "properties": { "name": "Gothic 20", "installed": 2005.0, "installer": "RMBL / J Boynton", "type": null, "position_quality": "SINGLE", "lat_dd": 38.971288794313274, "lon_dd": -106.98763630830128, "latest_recovery": null, "recovered_by": null, "found_mark": null, "stability": null, "condition": null }, "geometry": { "type": "Point", "coordinates": [ 327810.256366834393702, 4315469.324921928346157 ] } },
{ "type": "Feature", "properties": { "name": "Gothic 20GPS", "installed": 2005.0, "installer": "RMBL / J Boynton", "type": null, "position_quality": "SINGLE", "lat_dd": 38.971288165980312, "lon_dd": -106.98763570045583, "latest_recovery": null, "recovered_by": null, "found_mark": null, "stability": null, "condition": null }, "geometry": { "type": "Point", "coordinates": [ 327810.307507084391546, 4315469.254037172533572 ] } },
{ "type": "Feature", "properties": { "name": "Gothic 2GPS", "installed": 2005.0, "installer": "RMBL / J Boynton", "type": "disc on bedrock", "position_quality": "SINGLE", "lat_dd": 38.96103283090288, "lon_dd": -106.98186981461707, "latest_recovery": "2022-06-18", "recovered_by": "W Petry", "found_mark": true, "stability": "high", "condition": "good" }, "geometry": { "type": "Point", "coordinates": [ 328285.082490542088635, 4314320.183579853735864 ] } },
{ "type": "Feature", "properties": { "name": "Gothic 18GPS", "installed": 2005.0, "installer": "RMBL / J Boynton", "type": null, "position_quality": "SINGLE", "lat_dd": 38.96713679075819, "lon_dd": -107.00029531208064, "latest_recovery": null, "recovered_by": null, "found_mark": null, "stability": null, "condition": null }, "geometry": { "type": "Point", "coordinates": [ 326703.38626089511672, 4315032.530713672749698 ] } },
{ "type": "Feature", "properties": { "name": "Gothic 3GPS", "installed": 2005.0, "installer": "RMBL / J Boynton", "type": "disc with concrete anchor", "position_quality": "SINGLE", "lat_dd": 38.959400372958314, "lon_dd": -106.98968208820638, "latest_recovery": "2022-06-12", "recovered_by": "W Petry", "found_mark": true, "stability": "medium", "condition": "good" }, "geometry": { "type": "Point", "coordinates": [ 327604.189484644331969, 4314153.764420635066926 ] } },
{ "type": "Feature", "properties": { "name": "Gothic 4GPS", "installed": 2005.0, "installer": "RMBL / J Boynton", "type": "UNKNOWN", "position_quality": "SINGLE", "lat_dd": 38.957393131190543, "lon_dd": -106.98882450444842, "latest_recovery": "2022-06-12", "recovered_by": "W Petry", "found_mark": false, "stability": "UNKNOWN", "condition": "presumed buried" }, "geometry": { "type": "Point", "coordinates": [ 327673.637059715692885, 4313929.368949128314853 ] } },
{ "type": "Feature", "properties": { "name": "Gothic 7GPS", "installed": 2005.0, "installer": "RMBL / J Boynton", "type": "UNKNOWN", "position_quality": "SINGLE", "lat_dd": 38.9548256367801, "lon_dd": -106.9865643696849, "latest_recovery": "2022-06-13", "recovered_by": "W Petry", "found_mark": false, "stability": "UNKNOWN", "condition": "presumed buried" }, "geometry": { "type": "Point", "coordinates": [ 327863.274116434680764, 4313640.143562543205917 ] } },
{ "type": "Feature", "properties": { "name": "Gothic 8GPS", "installed": 2005.0, "installer": "RMBL / J Boynton", "type": null, "position_quality": "SINGLE", "lat_dd": 38.952416344192912, "lon_dd": -106.98597647371304, "latest_recovery": null, "recovered_by": null, "found_mark": null, "stability": null, "condition": null }, "geometry": { "type": "Point", "coordinates": [ 327908.390610377828125, 4313371.639070004224777 ] } },
{ "type": "Feature", "properties": { "name": "Gothic 10GPS", "installed": 2005.0, "installer": "RMBL / J Boynton", "type": "UNKNOWN", "position_quality": "SINGLE", "lat_dd": 38.947185689683273, "lon_dd": -106.99455711708896, "latest_recovery": "2022-07-15", "recovered_by": "W Petry", "found_mark": false, "stability": "UNKNOWN", "condition": "presumed buried" }, "geometry": { "type": "Point", "coordinates": [ 327152.076005246024579, 4312807.36371938791126 ] } },
{ "type": "Feature", "properties": { "name": "Gothic 1GPS", "installed": 2005.0, "installer": "RMBL / J Boynton", "type": "disc on rebar rod", "position_quality": "SINGLE", "lat_dd": 38.956455017917364, "lon_dd": -106.98596436841972, "latest_recovery": "2022-06-13", "recovered_by": "W Petry", "found_mark": true, "stability": "low", "condition": "good" }, "geometry": { "type": "Point", "coordinates": [ 327919.211348412907682, 4313819.845649387687445 ] } },
{ "type": "Feature", "properties": { "name": "Gothic 5GPS", "installed": 2005.0, "installer": "RMBL / J Boynton", "type": "disc on rebar rod", "position_quality": "SINGLE", "lat_dd": 38.955814197428616, "lon_dd": -106.98298784422138, "latest_recovery": "2022-06-13", "recovered_by": "W Petry", "found_mark": true, "stability": "low", "condition": "good" }, "geometry": { "type": "Point", "coordinates": [ 328175.596227545756847, 4313743.10550179053098 ] } },
{ "type": "Feature", "properties": { "name": "Gothic 11GPS_RTK", "installed": 2005.0, "installer": "RMBL / J Boynton", "type": "disc with concrete anchor", "position_quality": "SINGLE", "lat_dd": 38.95896754813446, "lon_dd": -106.98703882632223, "latest_recovery": "2022-06-12", "recovered_by": "W Petry", "found_mark": true, "stability": "medium", "condition": "good" }, "geometry": { "type": "Point", "coordinates": [ 327832.186175355163869, 4314100.727730033919215 ] } }
]
}
